STNID,LAT,LONG,ELV,STN_NAME
AR604,-22.72611111,-64.36,500,Aguas Blancas
AR607,-22.26666667,-64.58333333,1126,Alarache
AR631,-22.37805556,-62.5225,255,Mision La Paz
AR674,-22.81666667,-64.96666667,1495,San Antonio
AR678,-22.25277778,-64.97111111,2401,Santa Victoria Oeste
AR693,-23.21666667,-64.2,303,Pozo Sarmiento
BO1002,-19.24638889,-64.37833333,2426,Arquillos
BO1003,-20.10055556,-64.41,2558,Azurduy
BO1004,-19.5,-64.03333333,1200,Bartolo
BO1005,-19.13333333,-65.26666667,2632,Cachimayu
BO1008,-20.82861111,-64.9425,2958,Culpina
BO1009,-20.56666667,-63.88333333,950,Cumandayti
BO1010,-19.36805556,-64.555,2420,Chavarria
BO1014,-19.05,-64.58333333,2000,El Rodeo
BO1015,-20.56666667,-63.73333333,780,El Salvador
BO1016,-19.63111111,-64.30694444,2113,El Villar
BO1020,-20.76666667,-64.86666667,3003,Incahuasi_CHUQ
BO1021,-20.36111111,-64.00222222,1116,Huacareta La Galeria
BO1022,-19.03333333,-65.23333333,2840,La Madona
BO1024,-18.93333333,-65.11666667,2169,La Palma
BO1025,-20.61583333,-65.14083333,3238,La Torre
BO1026,-19.07166667,-64.81055556,2644,Lamboyo
BO1028,-19.03333333,-65.41666667,3040,Maragua H
BO1029,-19.82111111,-63.96305556,1124,Monteagudo_El Banado
BO1030,-19.86666667,-63.76666667,1212,Muyupampa
BO1031,-20.49138889,-65.14666667,3239,Muyuquiri
BO1032,-18.99611111,-64.29277778,2222,Nuevo Mundo
BO1033,-19.20472222,-65.27555556,2635,Nucchu
BO1034,-19.30222222,-64.30222222,2062,Padilla
BO1036,-20.15,-64.63333333,2100,Pirhuani
BO1037,-18.78333333,-65.31666667,2400,Pojpo_H
BO1038,-18.53416667,-65.42583333,2526,Poroma_ch
BO1039,-19.01972222,-65.53055556,3080,Potolo
BO1041,-19.35333333,-65.17722222,2310,Puente Sucre
BO1042,-18.98333333,-65.30833333,2946,Punilla
BO1043,-18.825,-64.61611111,2485,Redencion Pampa
BO1045,-20.1025,-65.13333333,3059,San Lucas
BO1049,-19.48611111,-64.47444444,2085,Sopachuy
BO1050,-19.00972222,-65.29388889,2895,Sucre Aeropuerto
BO1051,-19.11,-65.40527778,3014,Talula_Tako Tako
BO1052,-19.73333333,-63.85,1120,Taperillas
BO1053,-19.18055556,-64.91333333,3287,Tarabuco
BO1055,-19.16666667,-64.46666667,2174,Tomina
BO1056,-19.16972222,-64.26416667,2032,Urriolagoytia
BO1057,-20.975,-65.23055556,2308,Villa Abecia
BO1058,-19.36083333,-64.38777778,2077,Villa Alcala
BO1059,-19.11833333,-64.3225,2238,Villa Serrano
BO1060,-19.40833333,-64.85277778,2165,Vinha Quemada
BO1061,-19.19222222,-65.12055556,3116,Yamparaez
BO1062,-19.16166667,-65.26638889,2533,Yotala
BO1063,-19.11888889,-64.70333333,2489,Zudanez
BO1064,-19.03805556,-65.24305556,2864,El Reloj
BO1066,-20.58083333,-63.89472222,939,Rosario del Ingre
BO1072,-19.03805556,-65.24305556,2852,Sucre SENAMHI
BO1083,-20.72833333,-64.0275,855,Nhacamari Iguembecito
BO1096,-18.96666667,-65.01666667,2300,Paccha_H
BO1104,-18.69027778,-64.70388889,2580,Buena Vista Ch
BO2001,-17.09416667,-68.00833333,3887,Ayo Ayo
BO2002,-14.71666667,-68.51666667,1677,Apolo SENAMHI
BO2003,-17.21166667,-68.99944444,3889,Achiri
BO2004,-16.53083333,-68.07138889,3398,Achumani
BO2005,-16.16916667,-69.08861111,3900,Copacabana
BO2006,-17.28055556,-68.63555556,3835,Calacoto
BO2007,-16.32416667,-67.60444444,1746,Coripata
BO2008,-16.90027778,-68.28166667,3935,Collana
BO2009,-15.24833333,-68.745,1962,Camata
BO2010,-17.02222222,-68.60555556,3942,Caquiaviri
BO2011,-16.2,-69.08333333,4000,Copacati
BO2012,-15.83472222,-67.57361111,620,Caranavi
BO2013,-16.23916667,-68.56666667,3934,Copancara
BO2014,-15.75527778,-69.06416667,3845,Carabuco
BO2015,-17.15861111,-69.48638889,4244,Catacora
BO2018,-15.4,-68.93333333,3000,Chuma
BO2019,-16.29611111,-68.49638889,3895,Chirapaca
BO2020,-16.17611111,-68.63055556,3856,Huarina Cota Cota
BO2021,-16.17666667,-68.38111111,4365,Hichucota
BO2022,-17.35,-67.65,3917,Huaraco
BO2023,-16.47305556,-67.45277778,1905,Irupana
BO2024,-16.03666667,-69.14833333,3913,Isla Del Sol
BO2025,-17.06138889,-67.66194444,2601,Luribay
BO2026,-16.53333333,-68.05,3662,Ovejuyo
BO2027,-15.52666667,-69.25305556,3900,Puerto Acosta
BO2028,-17.06666667,-69.19944444,3883,Santiago De Machaca
BO2029,-15.56555556,-67.325,420,Sapecho
BO2030,-16.05111111,-68.81027778,4157,Santiago De Huata
BO2031,-16.58555556,-68.96666667,3865,San Juan Huancollo
BO2032,-17.8,-69.16666667,5184,Sepulturas
BO2033,-16.49527778,-68.1325,3653,San Calixto
BO2034,-15.66638889,-69.16722222,3922,Villa Puni
BO2037,-16.48333333,-68.16666667,4100,Alto Lima
BO2038,-14.86666667,-69.3,4650,Antaquilla
BO2039,-15.73333333,-68.5,4143,Ancohoma
BO2040,-16.52277778,-68.10083333,3480,Alto Obrajes_Barrio Magisterio
BO2041,-16.58111111,-68.16083333,3757,Achocalla
BO2042,-15.89833333,-68.90416667,3888,Ancoraimes
BO2044,-17.28888889,-69.21416667,4158,Berenguela
BO2045,-16.41666667,-68.48333333,3825,Batallas
BO2046,-16.55,-67.8,4532,Mina Bolsa Negra
BO2047,-16.06666667,-68.53333333,4165,Corpaputo
BO2048,-16.9,-68.11666667,4150,Calamarca
BO2050,-16.63722222,-67.25222222,1495,Circuata
BO2051,-16.98333333,-67.83333333,2652,Caracato
BO2052,-17.37694444,-67.45527778,4035,Conchamarca
BO2054,-15.83,-66.94972222,538,Covendo
BO2055,-15.19527778,-69.00361111,3658,Charazani
BO2057,-16.31666667,-68.33333333,4219,Chunhavi Alto
BO2059,-16.49638889,-68.15805556,3816,El Tejar
BO2060,-15.48333333,-69.03333333,3491,Italaque
BO2061,-16.08333333,-68.03333333,1659,Isicani
BO2065,-16.6,-67.7,3453,Lambate
BO2066,-16.67111111,-68.01833333,2878,Mecapaca
BO2067,-16.45,-67.21666667,2169,Miguillas
BO2068,-16.28333333,-68.63333333,3815,Penhas
BO2069,-17.16666667,-67.53333333,3300,Poroma_lp
BO2070,-16.63833333,-67.85833333,3922,Pinaya
BO2071,-16.5225,-68.14388889,3758,Pasankeri
BO2072,-17.3,-67.43333333,4105,Puchuni
BO2073,-16.51666667,-68.13333333,3844,Palcoma
BO2074,-16.39611111,-68.47472222,3855,Pucarani
BO2075,-16.5,-68.11666667,3883,Pampahasi
BO2076,-15.58333333,-68.76666667,1970,Quiabaya
BO2078,-17.38333333,-67.75,4136,Sica Sica
BO2079,-16.86666667,-67.93333333,3567,Sapahaqui
BO2080,-17.19027778,-67.62083333,3818,Salla
BO2081,-16.96666667,-68.96666667,3985,San Andres De Machaca
BO2082,-17.70444444,-67.77861111,3742,San Jose Alto
BO2083,-16.48333333,-68.2,4025,Rio Seco
BO2084,-16.46666667,-68.86666667,3841,Taraco
BO2085,-16.48277778,-68.11388889,3782,Villa Copacabana
BO2086,-16.51666667,-68.21666667,4006,Villa Adela
BO2087,-16.48083333,-68.13888889,3943,Vino Tinto
BO2088,-16.86666667,-67.5,4723,Viloco
BO2089,-16.63333333,-68.48333333,3982,Yanamuyo Alto
BO2090,-16.51027778,-68.19861111,4042,El Alto Aeropuerto
BO2091,-17.58333333,-69.45,4067,Charanha
BO2093,-16.50472222,-68.12333333,3559,Laykacota
BO2094,-17.23861111,-67.92305556,3797,Patacamaya
BO2096,-16.01638889,-68.69777778,3827,El Belen
BO2098,-16.12666667,-67.19666667,745,La Asunta
BO2099,-16.22555556,-67.72805556,1586,Incapampa
BO2100,-16.56666667,-68.5,3869,Tambillo_LP
BO2101,-16.56055556,-67.95138889,3578,Palca_LP
BO2102,-15.76666667,-68.65166667,2772,Sorata
BO2103,-16.65833333,-68.28194444,3869,Viacha
BO2104,-16.56861111,-68.67833333,3859,Tiawanacu
BO2108,-14.7,-69.1,3250,Queara
BO2112,-14.78333333,-69.53333333,4540,Suches
BO2115,-14.88333333,-68.93333333,4000,Hilo Hilo
BO2125,-17.95,-68.41666667,4055,Comanche
BO2128,-15.45,-67.38333333,375,Naranjani
BO2130,-16.21166667,-68.6975,3824,Huatajata
BO2131,-15.69222222,-67.69083333,550,Santa Rita de Bs. As.
BO2138,-16.66666667,-67.66666667,1560,Minachi_H
BO2140,-15.31666667,-68.65,2000,Aucapata
BO2151,-16.5,-68.15,3739,Puente Negro
BO2154,-16.31666667,-67.91666667,3020,Unduavi_h
BO2155,-16.55,-68.08333333,3280,Mallasa
BO2156,-16.8,-67.58333333,3580,Araca
BO2157,-16.34305556,-68.49694444,3874,Huayrocondo
BO2165,-16.34722222,-68.08472222,4484,Alto Achachicala
BO2166,-16.46666667,-68.15,3700,Achachicala
BO2171,-16.55,-69.03333333,3812,Desaguadero
BO2173,-16.73333333,-68.36666667,3830,Irpa Chico
BO2176,-15.48333333,-68.76666667,3111,Pillapi
BO2178,-16.65,-68.3,3310,Coniri
BO2187,-15.71666667,-67.58333333,900,Bautista Saavedra
BO2190,-16.53333333,-67.2,1000,Khora
BO2194,-16.83333333,-66.88333333,1220,San Jacinto_lp_h
BO2195,-16.51666667,-67.23333333,1374,Suri_h
BO2196,-15.75,-68.81666667,4500,Chaguaya
BO2216,-16.5,-68.03333333,3140,Millipunku
BO2218,-16.53333333,-68.08333333,3300,Alto Seguencoma
BO2227,-16.86666667,-68.15,5200,Huayna Potosí
BO2235,-16.33333333,-68,3950,Planta Cahua H
BO2238,-16.2333,-67.7,2405,Coroico
BO2240,-17.16666667,-67.4,3771,Yaco
BO2286,-16.3039,-67.8153,3093,Chuspipata
BO2302,-16.41527778,-68.02277778,4200,Hampaturi EPSAS
BO2305,-16.40694444,-68.04777778,4369,Incachaca EPSAS
BO3002,-18.20333333,-65.17805556,2261,Aiquile
BO3003,-17.78361111,-65.93277778,3036,Anzaldo
BO3004,-17.57361111,-65.75444444,2855,Arani
BO3005,-17.7,-66.26055556,2390,Capinota
BO3010,-17.26527778,-66.79722222,3852,Charahuayto
BO3012,-16.87333333,-65.48277778,262,Chipiriri
BO3013,-17.08138889,-66.81861111,2688,Independencia
BO3014,-16.71666667,-66.81666667,3709,Iturata
BO3015,-16.995,-65.17138889,249,La Jota (Chimore)
BO3016,-17.21666667,-66.25,4069,Ramadas Cbba
BO3017,-17.44861111,-66.13555556,2587,La Tamborada
BO3018,-17.34722222,-66.23166667,2617,La Violeta
BO3019,-16.98333333,-66.68333333,3379,Locotal
BO3020,-17.09,-66.32722222,4070,Misicuni
BO3023,-17.36611111,-66.31861111,2626,Pairumani
BO3024,-17.56611111,-66.34361111,2477,Parotani
BO3025,-18.61138889,-65.15583333,1554,Puente Arce
BO3026,-16.83777778,-64.7925,195,Puerto Villarroel
BO3028,-17.52638889,-65.90388889,2726,San Benito
BO3029,-17.36666667,-66.33333333,2667,San Miguel_Jankocala CBBA
BO3030,-17.60861111,-66.02277778,2751,Tarata
BO3031,-17.42527778,-65.72444444,3325,Tiraque
BO3033,-17.65,-66.11666667,3039,Totora_CBBA
BO3034,-16.08333333,-66.76666667,3800,Totora Pampa
BO3035,-17.41611111,-66.17444444,2563,Cochabamba Aeropuerto
BO3049,-17.94277778,-65.33777778,2013,Mizque
BO3066,-17.46666667,-65.76666667,3092,Sacabambilla Baja
BO3069,-18.425,-65.21777778,1951,Quiroga
BO3079,-17.03333333,-66.36666667,3500,Incachaca_Ayopaya
BO3083,-17.80388889,-65.80083333,3174,Sacabamba
BO3085,-17.9,-66.91666667,2700,Rio Rancho
BO3114,-17.44361111,-65.17138889,2570,Lab. Hidraulica UMSS
BO3261,-16.71,-66.75,1350,Atispaya Maravillas
BO3266,-17.225,-65.88305556,3240,Corani Represa
BO3284,-16.96666667,-66.83333333,3450,Sivingani Ayopaya
BO3287,-17.31666667,-66.25,3500,Titiri
BO3299,-17.38416667,-66.17555556,2572,Sarco
BO3306,-17.13333333,-66.36666667,3500,Incachaca - Quillacollo
BO4001,-18.77194444,-67.50638889,3749,Andamarca
BO4005,-18.1778,-68.7064,3909,Cosapa
BO4008,-17.59638889,-67.50611111,3761,Eucaliptus
BO4012,-17.95277778,-67.07972222,3715,Oruro Aeropuerto
BO4014,-19.23,-66.95972222,3722,Quillacas
BO4019,-19.275,-67.59916667,3726,San Martin
BO4023,-19.13027778,-67.42472222,3751,Ucumasi
BO4026,-17.83694444,-66.81388889,4042,Chillca
BO4027,-17.97472222,-67.08,3716,Cabanha_Forestal_Oruro
BO4028,-19.00777778,-68.71527778,3927,Todo Santos_Or
BO5002,-21.46666667,-67.65,3820,Alota
BO5003,-20.73666667,-67.65833333,3898,Colcha K
BO5004,-20.38333333,-65.46666667,2842,Calcha Nor Chichas
BO5005,-20,-65.65,3270,Caiza D
BO5007,-19.64805556,-65.36111111,3289,Chinoli
BO5008,-19.61666667,-65.5,3370,Challviri
BO5009,-19.85,-66.13333333,3773,Chaquilla
BO5010,-19.66666667,-65.55,3558,Chico Chico
BO5013,-22.1722,-67.8175,4354,Laguna Colorada
BO5014,-20.15,-65.35,3201,Otavi
BO5015,-19.58333333,-65.75,4005,Potosi Los Pinos
BO5016,-19.43333333,-65.78333333,2375,Pampa Soico
BO5017,-21.82916667,-65.55055556,3414,Mojo
BO5018,-20.82222222,-65.64694444,2649,Cotagaita_Mosoj Llajta
BO5019,-18.81666667,-66.03333333,3581,Macha
BO5020,-19.79722222,-65.50333333,3281,Puna
BO5021,-20.68333333,-65.43333333,2521,Palca Higueras
BO5022,-19.68333333,-66.76666667,3819,Rio Mulato
BO5023,-21.08333333,-65.63333333,3250,Ramadas Pti
BO5025,-19.48333333,-65.68333333,3760,Samasa
BO5027,-21.14777778,-67.67555556,3829,San Agustin
BO5028,-21.74638889,-65.82166667,3078,Talina
BO5030,-21.43833333,-65.71527778,3020,Tupiza
BO5031,-19.21666667,-65.81666667,3569,Tinguipaya
BO5033,-20.47222222,-66.83138889,3668,Uyuni
BO5034,-22.08333333,-65.6,3454,Villazon
BO5035,-19.38888889,-65.91027778,3481,Yocalla
BO5036,-19.58333333,-65.55,3449,Chaqui
BO5037,-18.80472222,-65.51194444,3215,Ravelo
BO5039,-20.21555556,-65.49305556,3011,Vitichi
BO5041,-19.88333333,-65.7,3700,Cuchu Ingenio
BO5042,-21.01666667,-67.56666667,3670,Calcha de Lipez
BO5046,-21.6831,-66.6139,4275,San Pablo de Lipez
BO5050,-19.53666667,-65.72083333,3926,Potosi Aeropuerto
BO5052,-18.425,-66.56027778,3792,Llallagua
BO5054,-19.58333333,-64.83333333,2050,Oronkota Pti
BO5058,-20.93333333,-66.21666667,3730,Atocha
BO5060,-20.46666667,-65.61583333,2772,Tumusla
BO5062,-19.31666667,-65.53333333,3526,Colavi
BO5063,-19.38055556,-65.21277778,2645,Casin
BO5065,-18.01666667,-66.08333333,3020,Acasio
BO5066,-20.55,-68.56666667,3630,Abra de Napa
BO5067,-18.06666667,-66.38333333,3700,Sacaca
BO5069,-18.86972222,-66.14916667,3495,Ayoma
BO5073,-19.41666667,-65.18333333,2300,Millares_H
BO5074,-19.0725,-65.9617,3518,Actara
BO5075,-20.31666667,-65.4,3020,Ampa Ampa
BO5076,-21.68333333,-65.53333333,3443,Arenales
BO5078,-21.58333333,-65.6,3420,Charaja
BO5083,-20.18333333,-66.01666667,3531,Tica Tica
BO5084,-19.55,-65.85,3509,Santa Lucia_Pti
BO5097,-21.98333333,-65.55,3400,Chagua
BO5104,-21.56138889,-65.64111111,2860,Chuquiago
BO6001,-21.85555556,-63.29388889,468,Algarrobillas
BO6002,-21.3,-64.46666667,2428,Alto Cajas
BO6004,-21.75,-64.95,3070,Calderillas
BO6005,-21.35,-64.75,2080,Canasmoro
BO6006,-21.90222222,-64.85083333,2100,Canhas
BO6009,-21.49916667,-64.78888889,2004,Coimata
BO6010,-21.25,-65.2,2345,El Puente
BO6011,-21.48333333,-64.63333333,2318,Gamoneda
BO6013,-21.43333333,-64.46666667,2348,Junacas
BO6014,-21.81027778,-64.7975,1919,Juntas
BO6017,-21.17833333,-64.71527778,2731,Leon Cancha
BO6019,-21.88333333,-64.71666667,2010,Padcaya
BO6020,-21.86666667,-63.6,594,Palmar Chico
BO6021,-21.53138889,-63.44194444,463,Palmar Grande
BO6022,-21.7,-64.81666667,1950,Pampa Redonda_H
BO6024,-22.01666667,-64.98333333,3282,Rejara
BO6027,-21.61027778,-64.72,1860,San Jacinto Sud
BO6030,-21.38333333,-64.7,2157,Sella Quebrada
BO6031,-21.54666667,-64.71083333,1861,Tarija Aeropuerto
BO6032,-21.26833333,-65.045,2795,Tomayapo Pueblo
BO6033,-21.30805556,-64.81583333,2261,Trancas
BO6035,-21.25472222,-63.4075,401,Villamontes Aeropuerto
BO6036,-21.96555556,-63.65444444,647,Yacuiba Aeropuerto
BO6037,-21.37222222,-64.55083333,2289,Yesera Norte
BO6039,-22.77083333,-64.31166667,382,Bermejo_Aeropuerto tja
BO6043,-21.54305556,-64.72111111,1864,El Tejar Tarija
BO6044,-21.50305556,-64.17055556,1254,Entre Rios Tarija
BO6052,-21.81888889,-65.32638889,2697,Tojo
BO6053,-21.1475,-64.23472222,881,San Josecito
BO6064,-21.445,-64.03805556,1154,Berety
BO6075,-21.49194444,-64.76111111,1928,Tomatitas
BO6076,-21.53833333,-64.72694444,1867,Ciudad-Tja
BO6082,-21.71666667,-64.68333333,1800,San Nicolas
BO6085,-21.81666667,-64.86666667,2040,Alizos
BO6092,-21.88333333,-64.88333333,1120,Canchasmayu
BO6094,-21.83333333,-63.75,805,Carapari
BO6100,-21.43333333,-64.66666667,2195,San Pedro Buena Vista_tja
BO6110,-21.41666667,-64.75,1900,San Lorenzo
BO6111,-21.53333333,-64.51666667,2210,San Agustin_tja
BO6112,-21.38861111,-64.94694444,3450,Iscayachi - San Antonio
BO6118,-21.77166667,-64.23,1096,Salinas
BO6119,-21.47361111,-64.95138889,3440,Sama Iscayachi
BO6120,-21.49166667,-64.98194444,3495,Sama Cumbre
BO6131,-21.7,-64.63333333,1680,Calamuchita
BO6132,-21.39,-63.41222222,399,Aguaraycito
BO6133,-21.74805556,-64.72944444,1791,Chocloca
BO6134,-22.26694,-64.55444,911,Emborozu
BO6135,-22.4,-64.5,980,Guandacay
BO6136,-21.8,-65.1,3800,Copacabana Taxara
BO6138,-21.36666667,-64.95,3367,El Molino Tomayapo
BO6144,-21.25,-65.2,2345,El Puente (c)
BO6147,-22.43333333,-64.5,698,El Salado
BO6149,-21.34722222,-63.28722222,352,La Vertiente
BO6152,-22.7125,-64.29138889,384,Arrozales - Bermejo
BO6153,-21.5125,-64.97555556,3465,Campanario
BO6154,-21.72527778,-64.65805556,1735,Ce.Na.Vit.
BO6156,-21.75,-64.65,2000,Colon Sud
BO6161,-22.02472222,-64.67666667,1509,La Merced
BO6162,-21.71583333,-64.09555556,1356,Saykan Perulas
BO6164,-21.55666667,-64.77833333,1978,Turumayo
BO6165,-21.46722222,-64.55833333,2092,Yesera Sur
BO6166,-21.415,-63.78138889,717,Palos Blancos Tja
BO6167,-21.66055556,-63.55055556,652,Sachapera
BO6169,-21.26111111,-63.50333333,383,Villamontes Bombeo
BO6174,-24.74166667,-58.83611111,89,Gral Gruguez Paraguay
BO6175,-21.65,-64.53333333,2603,Ladera Centro
BO7001,-18.91972222,-63.40444444,446,Abapo
BO7002,-15.91527778,-63.16916667,241,Asencion De Guarayos
BO7003,-20.43583333,-63.27722222,823,Boyuibe
BO7004,-17.45,-63.66666667,356,Buena Vista Sc
BO7005,-16.78333333,-63.31666667,233,Cabezas
BO7006,-17.91361111,-64.52972222,1833,Comarapa
BO7007,-16.13833333,-62.0275,499,Concepcion_sc
BO7008,-17.75,-62.98333333,356,Cotoca
BO7010,-18.56555556,-63.37916667,579,Florida
BO7011,-16.45,-63.21666667,219,Ingenio Mora
BO7012,-18.1,-63.95,1625,Mairana
BO7013,-18.98333333,-63.7,400,Masicuri
BO7014,-18.11666667,-64.21666667,1379,Mataral
BO7015,-17.11,-63.24166667,254,Minero (Unagro)
BO7016,-17.36027778,-63.24805556,302,Montero_Muyurina
BO7017,-17.21666667,-62.88333333,256,Okinawa I
BO7018,-17.35,-63.4,297,Portachuelo
BO7020,-18.71666667,-64.18333333,2537,Pucara
BO7022,-18.97888889,-57.81916667,133,Puerto Suarez Aeropuerto
BO7024,-18.08333333,-64.41666667,1560,Pulquina
BO7025,-16.68333333,-61.16666667,429,Quimome
BO7026,-18.32972222,-59.76333333,265,Robore
BO7028,-16.38166667,-60.96194444,417,San Ignacio De Velasco
BO7029,-16.27138889,-62.47083333,535,San Javier
BO7030,-17.96305556,-64.28916667,1549,San Juan Del Potrero
BO7031,-16.91583333,-62.62583333,249,San Julian
BO7035,-17.62222222,-62.2325,282,Tres Cruces
BO7036,-18.48194444,-64.10805556,1999,Vallegrande Aeropuerto
BO7038,-17.96666667,-64.03333333,1500,Yerba Buena
BO7039,-17.805,-63.17805556,426,Trompillo Aeropuerto
BO7041,-16.33166667,-58.39916667,127,San Matias
BO7042,-17.83222222,-60.74416667,287,San Jose de Chiquitos
BO7043,-17.64861111,-63.13888889,378,Viru Viru
BO7048,-17.25,-63.83333333,278,San Juan de Yapacani
BO7049,-18.08333333,-63.43333333,400,Taruma
BO7050,-18.15,-63.56666667,1334,Angostura_sc
BO7052,-18.16666667,-63.95,1650,Samaipata
BO7053,-18.33333333,-63.95,1510,Quirusillas
BO7055,-19.78333333,-63.08333333,690,Itaguazurenda
BO7058,-18.08333333,-64.35,1986,El Quinhe
BO7061,-17.23333333,-63.2,278,General Saavedra
BO7062,-18.08333333,-64.15,1658,Santa Ana - Santa Cruz
BO7063,-17.46666667,-63.68333333,347,El Cairo
BO7064,-17.59083333,-63.52361111,380,Villa Diego
BO7068,-15.3119,-61.4367,253,San Francisco_Sc
BO7069,-16.81666667,-63.48333333,223,San Pedro_Sc
BO7070,-17.88333333,-64.21666667,1797,Santa Rosa de Lima_Sc
BO7071,-17.76666667,-63.06666667,325,Guapilo
BO7072,-19.42083333,-63.5275,960,Gutierrez
BO7073,-17.63333333,-62.23333333,281,Pailon
BO7074,-13.65055556,-61.80777778,180,Piso Firme
BO7075,-20,-63.18333333,644,San Antonio_Sc
BO7077,-19.78444444,-63.19722222,735,Charagua
BO7082,-17.76666667,-63.15,411,Vallecito
BO7083,-15.9,-61.43333333,374,Santa Rosa de Roca
BO7084,-17.11666667,-63.6,268,Santa Rosa del Sara
BO7087,-18.3,-63.8,1510,San Juan del Rosario SEARPI
BO7092,-18.1,-63.63333333,1209,Bermejo SEARPI
BO7101,-17.96666667,-63.46666667,733,Granja Espejos
BO7102,-17.86666667,-63.31666667,469,La Guardia
BO7104,-17.93333333,-63.78333333,450,Peroto
BO7116,-17.66666667,-63.63333333,380,San Isidro
BO7118,-17.33333333,-63.31666667,292,El Patuju
BO7121,-17.33333333,-63.38333333,317,Montero SEARPI
BO7142,-17.5,-63.16666667,331,Albosa
BO7143,-18.1,-63.63333333,1000,Bermejo_Sc
BO7146,-17.78333333,-63.16666667,417,Santa Cruz SENAMHI
BO7147,-17.96666667,-63.28333333,550,Colonia San Carlos
BO7148,-17.83333333,-63.16666667,600,Colonia San Juan
BO7153,-17.9,-64.05,1250,El Carmen
BO7154,-19.98333333,-63.03333333,600,Floresta
BO7157,-17.55,-63.21666667,348,La Belgica
BO7164,-18.16666667,-63.86666667,1630,Samaipata SEARPI
BO7173,-18.5,-60.33333333,624,Santiago de Chiquitos
BO7177,-17.71666667,-63.38333333,420,Terevinto
BO7180,-17.63333333,-63.08333333,353,Versalles
BO7186,-18.45,-63.21666667,525,Mora
BO8001,-10.883831,-65.381009,141,Guayaramerin Aeropuerto
BO8003,-13.26111111,-64.05972222,144,Magdalena
BO8004,-13.04722222,-64.66583333,139,San Joaquin
BO8006,-13.76166667,-65.43444444,143,Santa Ana
BO8007,-14.82333333,-64.91638889,156,Trinidad Aeropuerto
BO8008,-11.00666667,-66.07611111,135,Riberalta
BO8010,-14.96666667,-65.63333333,165,San Ignacio De Moxos
BO8011,-14.85833333,-66.73861111,194,San Borja
BO8012,-14.30277778,-67.35277778,280,Reyes
BO8015,-13.26444444,-64.60555556,139,San Ramon
BO9002,-11.03972222,-68.78027778,227,Cobija Aeropuerto
BR1061003,-10.5169,-62.0014,184,RONDOMINAS_BARROCAS
BR1063000,-10.505,-63.6461,179,ESCOLA CARAMURA
BR1063001,-10.35,-63.4167,264,MINERAO PONTE MASSANGANA
BR1068000,-10.6497,-68.5067,173,XAPURI
BR1161002,-11.7497,-61.7764,220,ROLIM DE MOURA
BR1360001,-13.1967,-60.8233,257,CEREJEIRA
BR1457001,-14.96,-57.4686,215,TANGARO DA SERRA
BR1556007,-15.6989,-56.1336,166,SANTA EDWIGES
BR1559000,-15.2156,-59.3536,229,PONTES E LACERDA
BR1560000,-15.4003,-60.0317,202,FAZENDA AREIAO
BR1653002,-15.64722222,-52.23916667,347,GUIRATINGA
BR1656002,-16.3147,-56.5436,123,POCON
BR1657004,-16.0392,-57.2575,155,FLECHAS
BR1754000,-17.2078,-54.14,520,ITIQUIRA
BR1755000,-17.4917,-55.2322,177,SANTO ANTONIO DO PARASO
BR1853000,-17.8114,-53.2889,879,FAZENDA TAQUARI
BR1854004,-18.5042,-54.7556,215,COXIM
BR1857000,-17.99583333,-56.32833333,123,CORUMBA
BR1954004,-19.5336,-54.0356,408,CAMAPU
BR1956001,-19.1733,-56.7122,98,PARASO
BR1956004,-19.0033,-56.0889,124,CAMPO ALTO
BR1957006,-19.6008,-57.4367,81,PORTO ESPERANZA
BR2057000,-20.2908,-57.6478,81,TARUMO
BR2155001,-21.1497,-55.825,212,NIOAQUE
BR962000,-9.5864,-62.3939,177,MINERAO ORIENTE NOVO
BR966001,-9.6903,-65.9931,139,PEDREIRAS
BR967004,-9.5008,-67.2822,167,RESTAURANTE PORTEIRA DO AMAZONAS
BR967005,-9.8881,-67.1392,178,SANTA ROSA
BR968004,-9.5667,-68.2833,174,FAZENDA CANARI
CH401,-19.2289,-68.8044,3925,Cancosa
CH402,-20.0531,-68.8075,4024,Enquelca
CH403,-22.1147,-68.3167,3404,Colchane
CH404,-18.4983,-69.1547,4256,Inacaliri
CH405,-20.7086,-68.6942,3770,El Tatio
CH406,-18.2353,-69.1833,4558,Linzor
CH407,-17.9931,-69.6594,3919,Toncone
CH408,-22.9961,-68.8019,3282,Cupo
CH409,-22.0278,-68.0661,4109,Cebollar
CH410,-18.0542,-69.2017,4425,Represa Lequena
CH412,-17.835,-69.7039,3986,Unjina
CH415,-20.9714,-68.6275,4316,Coyacagua 
CH416,-18.2808,-69.1383,4571,Lagunillas
CH417,-22.3711,-68.0133,4380,Chilcaya
CH418,-19.9333,-68.8369,4026,Guallatire
CH419,-22.2592,-68.1733,3307,Chungara Reten
CH420,-22.2297,-68.0228,4129,Chungara Ajata
CH421,-18.1836,-69.2328,4542,Parinacota
CH424,-19.8553,-68.6017,3938,Alcerreca
CH425,-18.7939,-69.0844,4263,Humapalca
CH426,-17.7719,-69.7244,4080,Villa Industrial
CH427,-17.595,-69.4831,4081,Visviri
PA86011,-19.53333333,-59.48333333,138,Adrian Jara
PA86065,-22.55,-61.55,204,Pratts Gill
PA86068,-22.01666667,-60.61666667,165,Mcal Estigarribia
PA86086,-22.26666667,-57.93333333,73,La Victoria
PA86128,-23.48333333,-58.78333333,103,Pozo Colorado
PE157414,-14.91488889,-69.86802778,3860,Putina
PE157418,-14.48891667,-69.549,3879,Cuyo Cuyo
PE158308,-16.735,-70.6828,3253,Calacoa
PE158310,-16.13261111,-70.55208333,3955,Ichunha
PE158326,-17.18772222,-69.7355,4541,Capazo
PE158327,-17.23722222,-69.81305556,4279,Challapalca
PE158328,-17.525,-69.77944444,4571,Paucarani
PE690,-13.61,-71.56027778,3864,Ccatcca
PE762,-15.48527778,-70.67577778,4352,Pampahuta
PE764,-14.78477778,-70.71569444,3925,Chuquibambilla
PE779,-15.67344444,-70.37211111,3903,Lampa
PE783,-15.13625,-70.11822222,3855,Arapa
PE786,-15.2015,-69.75355556,3942,Huancane
PE787,-15.38827778,-69.48427778,3873,Huaraya Moho
PE815,-15.04561111,-70.36663889,3865,Pucara
PE818,-15.72047222,-69.691,3815,Isla Talique
PE822,-16.33022222,-68.85094444,3825,Isla Suana
PE823,-14.62375,-70.78652778,3950,Santa Rosa
PE826,-14.67872222,-69.53452778,4698,Ananea
PE860,-17.31361111,-69.66185556,4256,Chuapalca
PE878,-16.739,-69.71547222,3976,Mazo Cruz
PE879,-16.0675,-69.66194444,3871,Ilave
PE881,-16.90702778,-69.36855556,3926,Pizacoma
PE882,-16.30783333,-69.07472222,3873,Tahuaco_Yunguyo
PE883,-16.56335,-69.03883333,3835,Desaguadero
